City,Lat,Lng,Max Temp,Humidity,Cloudiness,Wind Speed,Country,Date
georgetown,5.41,100.34,26.0,83.0,20.0,3.1,MY,1601638465.0
arraial do cabo,-22.97,-42.03,26.0,78.0,23.0,5.7,BR,1601638403.0
meiganga,6.52,14.3,27.3,64.0,93.0,2.6,CM,1601638895.0
saint-philippe,-21.36,55.77,25.0,69.0,90.0,3.6,RE,1601638464.0
ribeira grande,38.52,-28.7,21.0,73.0,75.0,3.6,PT,1601638441.0
mandera,3.94,41.87,35.13,32.0,64.0,5.4,KE,1601638897.0
vaini,-21.2,-175.2,23.0,88.0,75.0,4.6,TO,1601638396.0
hilo,19.73,-155.09,24.0,88.0,1.0,1.5,US,1601638463.0
bredasdorp,-34.53,20.04,13.0,93.0,100.0,5.7,ZA,1601638397.0
chuy,-33.7,-53.46,13.83,74.0,0.0,8.21,UY,1601638497.0
east london,-33.02,27.91,16.0,87.0,75.0,7.7,ZA,1601638415.0
beveren,51.26,4.24,13.33,87.0,20.0,4.6,BE,1601638900.0
cape town,-33.93,18.42,18.89,55.0,75.0,9.3,ZA,1601638435.0
hermanus,-34.42,19.23,12.78,92.0,100.0,1.34,ZA,1601638393.0
bekhtery,46.25,32.29,19.0,77.0,40.0,5.0,UA,1601638902.0
lebu,-37.62,-73.65,7.7,76.0,7.0,6.06,CL,1601638501.0
bambous virieux,-20.34,57.76,26.0,65.0,75.0,3.1,MU,1601638461.0
klaksvik,62.23,-6.59,13.0,82.0,40.0,11.3,FO,1601638628.0
lazaro cardenas,17.96,-102.2,24.2,84.0,2.0,2.16,MX,1601638202.0
erenhot,43.65,111.98,9.19,46.0,1.0,4.1,CN,1601638596.0
atuona,-9.8,-139.03,25.88,73.0,5.0,10.79,PF,1601638451.0
fortuna,40.6,-124.16,15.56,100.0,90.0,1.5,US,1601638906.0
ban tak,17.04,99.08,27.0,88.0,75.0,4.1,TH,1601638906.0
sitka,57.05,-135.33,15.0,77.0,90.0,5.7,US,1601638439.0
los llanos de aridane,28.66,-17.92,26.0,57.0,40.0,5.7,ES,1601638857.0
rikitea,-23.12,-134.97,22.37,82.0,1.0,8.34,PF,1601638426.0
port alfred,-33.59,26.89,16.24,72.0,94.0,11.72,ZA,1601638488.0
mataura,-46.19,168.86,11.11,81.0,69.0,1.34,NZ,1601638435.0
kodiak,57.79,-152.41,11.0,87.0,90.0,11.8,US,1601638604.0
ostrovnoy,68.05,39.51,7.06,68.0,96.0,5.19,RU,1601638910.0
mwense,-10.38,28.7,38.62,13.0,14.0,1.11,ZM,1601638911.0
iida,35.52,137.82,21.11,89.0,7.0,0.21,JP,1601638701.0
yulara,-25.24,130.99,30.0,13.0,52.0,1.5,AU,1601638799.0
qaanaaq,77.48,-69.36,-7.93,83.0,0.0,2.83,GL,1601638444.0
vestmannaeyjar,63.44,-20.27,8.0,75.0,20.0,3.1,IS,1601638480.0
chikwawa,-16.03,34.8,41.75,14.0,12.0,3.88,MW,1601638914.0
roma,43.21,-75.46,8.33,87.0,20.0,1.5,US,1601638566.0
puerto quijarro,-17.78,-57.77,35.12,21.0,51.0,1.67,BO,1601638915.0
clyde river,70.47,-68.59,-3.0,92.0,75.0,6.2,CA,1601638639.0
butaritari,3.07,172.79,26.71,70.0,4.0,6.89,KI,1601638448.0
valdivia,-39.81,-73.25,1.0,100.0,91.0,0.5,CL,1601638823.0
omsukchan,62.53,155.8,-1.07,84.0,6.0,0.83,RU,1601638628.0
sault sainte marie,46.52,-84.33,4.0,96.0,90.0,2.1,CA,1601638728.0
hobart,-42.88,147.33,16.0,51.0,0.0,5.7,AU,1601638277.0
henties bay,-22.12,14.28,16.11,69.0,0.0,3.58,NA,1601638567.0
sergeyevka,53.88,67.42,15.4,58.0,22.0,2.46,KZ,1601638921.0
buala,-8.14,159.59,26.42,82.0,12.0,3.66,SB,1601638511.0
vardo,70.37,31.11,7.0,70.0,75.0,3.6,NO,1601638609.0
ushuaia,-54.8,-68.3,0.0,89.0,75.0,10.3,AR,1601638400.0
mar del plata,-38.0,-57.56,10.0,61.0,20.0,5.1,AR,1601638284.0
salcedo,12.81,121.47,26.86,81.0,100.0,0.43,PH,1601638930.0
onokhino,56.92,65.54,17.0,48.0,29.0,5.0,RU,1601638931.0
tasiilaq,65.61,-37.64,3.0,69.0,75.0,13.4,GL,1601638499.0
freeport,40.66,-73.58,16.0,59.0,90.0,2.6,US,1601638716.0
vallenar,-28.57,-70.76,16.73,42.0,0.0,0.94,CL,1601638933.0
husavik,66.04,-17.34,-2.0,86.0,100.0,1.5,IS,1601638934.0
asau,46.43,26.4,19.44,66.0,86.0,3.38,RO,1601638934.0
carnarvon,-24.87,113.63,21.0,68.0,40.0,8.7,AU,1601638475.0
cherskiy,68.75,161.3,0.03,89.0,95.0,1.89,RU,1601638497.0
petropavlovsk-kamchatskiy,53.05,158.65,5.0,100.0,80.0,2.0,RU,1601638543.0
nizwa,22.93,57.53,37.28,9.0,0.0,3.98,OM,1601638937.0
alyangula,-13.85,136.42,26.0,69.0,9.0,1.5,AU,1601638938.0
tafalla,42.53,-1.67,12.22,71.0,75.0,5.1,ES,1601638938.0
praia da vitoria,38.73,-27.07,21.11,94.0,90.0,6.99,PT,1601638939.0
balabac,7.99,117.06,28.37,73.0,18.0,1.56,PH,1601638940.0
mount isa,-20.73,139.5,29.0,18.0,10.0,3.1,AU,1601638468.0
longyearbyen,78.22,15.64,0.0,94.0,75.0,2.6,SJ,1601638449.0
albany,42.6,-73.97,11.67,87.0,100.0,2.12,US,1601638447.0
puerto ayora,-0.74,-90.35,18.89,90.0,86.0,2.24,EC,1601638476.0
adrian,41.9,-84.04,3.89,93.0,1.0,2.1,US,1601638677.0
makasar,-5.14,119.42,30.0,48.0,20.0,2.6,ID,1601638944.0
killybegs,54.63,-8.45,12.0,71.0,50.0,5.1,IE,1601638944.0
cayenne,4.93,-52.33,24.0,100.0,80.0,2.22,GF,1601638825.0
seddon,-37.81,144.89,22.22,49.0,0.0,7.7,AU,1601638946.0
saint george,37.1,-113.58,17.78,11.0,1.0,2.1,US,1601638485.0
cidreira,-30.18,-50.21,19.82,91.0,93.0,2.01,BR,1601638506.0
pisz,53.63,21.81,15.0,77.0,75.0,5.1,PL,1601638948.0
namatanai,-3.67,152.43,26.04,79.0,94.0,1.96,PG,1601638949.0
san jeronimo,-11.95,-75.28,9.88,60.0,38.0,0.72,PE,1601638949.0
port keats,-14.25,129.55,28.08,71.0,96.0,3.77,AU,1601638950.0
vila velha,-20.33,-40.29,27.22,65.0,12.0,6.7,BR,1601638951.0
svetlogorsk,52.63,29.73,17.26,53.0,57.0,5.66,BY,1601638952.0
yellowknife,62.46,-114.35,3.33,93.0,75.0,3.1,CA,1601638266.0
salalah,17.02,54.09,29.0,66.0,10.0,6.2,OM,1601638466.0
tuktoyaktuk,69.45,-133.04,2.83,95.0,93.0,1.41,CA,1601638495.0
sturgeon bay,44.83,-87.38,5.0,75.0,90.0,4.6,US,1601638955.0
lishu,43.3,124.33,12.29,53.0,70.0,6.2,CN,1601638956.0
upernavik,72.79,-56.15,-3.85,90.0,83.0,4.98,GL,1601638519.0
yar-sale,66.83,70.83,8.93,78.0,86.0,6.65,RU,1601638542.0
bandarbeyla,9.49,50.81,26.99,76.0,17.0,8.15,SO,1601638410.0
savalou,7.93,1.98,28.49,69.0,44.0,2.24,BJ,1601638958.0
iqaluit,63.75,-68.51,-3.0,73.0,75.0,5.7,CA,1601638179.0
punta arenas,-53.15,-70.92,0.0,86.0,40.0,3.6,CL,1601638337.0
kentau,43.52,68.51,19.23,26.0,91.0,1.46,KZ,1601638965.0
iskateley,67.68,53.15,6.42,68.0,86.0,7.37,RU,1601638967.0
katangli,51.71,143.23,6.71,85.0,16.0,2.83,RU,1601638968.0
barrow,71.29,-156.79,1.0,95.0,90.0,3.6,US,1601638202.0
candolim,15.52,73.76,29.0,74.0,40.0,5.7,IN,1601638969.0
norman wells,65.28,-126.83,1.0,100.0,20.0,2.1,CA,1601638583.0
yanacancha,-10.24,-76.65,4.52,80.0,79.0,1.44,PE,1601638971.0
ariquemes,-9.91,-63.04,23.68,91.0,86.0,0.87,BR,1601638971.0
jamestown,42.1,-79.24,7.22,93.0,90.0,3.1,US,1601638141.0
yerbogachen,61.28,108.01,-2.22,93.0,76.0,2.53,RU,1601638973.0
bayamo,20.38,-76.64,23.0,94.0,20.0,0.5,CU,1601638974.0
pitimbu,-7.47,-34.81,28.0,69.0,75.0,5.1,BR,1601638974.0
tuatapere,-46.13,167.68,11.11,81.0,67.0,1.34,NZ,1601638491.0
odesskoye,54.21,72.97,14.9,53.0,1.0,2.48,RU,1601638976.0
zhoucheng,35.91,116.31,17.85,31.0,100.0,2.07,CN,1601638977.0
busselton,-33.65,115.33,9.44,53.0,6.0,5.31,AU,1601638407.0
constitucion,-35.33,-72.42,8.8,65.0,0.0,2.32,CL,1601638436.0
mendoza,-32.89,-68.83,10.0,27.0,0.0,3.6,AR,1601638694.0
chabahar,25.29,60.64,31.42,63.0,0.0,6.08,IR,1601638979.0
bluff,-46.6,168.33,11.11,81.0,82.0,1.34,NZ,1601638417.0
kupang,-10.17,123.58,28.0,58.0,20.0,7.2,ID,1601638553.0
new norfolk,-42.78,147.06,16.0,51.0,0.0,5.7,AU,1601638393.0
provideniya,64.38,-173.3,4.11,91.0,97.0,6.23,RU,1601638650.0
lewistown,40.6,-77.57,8.89,100.0,1.0,1.18,US,1601638422.0
pevek,69.7,170.31,1.72,83.0,97.0,3.73,RU,1601638527.0
belen,36.49,36.22,31.0,43.0,40.0,4.6,TR,1601638983.0
orichi,58.4,49.06,16.49,67.0,78.0,2.58,RU,1601638984.0
cochrane,51.18,-114.47,9.44,70.0,1.0,4.6,CA,1601638984.0
nanakuli,21.39,-158.15,25.56,78.0,1.0,1.86,US,1601638985.0
hithadhoo,-0.6,73.08,29.06,65.0,68.0,2.36,MV,1601638419.0
emerald,-23.53,148.17,27.0,32.0,0.0,5.1,AU,1601638987.0
conceicao da barra,-18.59,-39.73,27.51,61.0,52.0,3.27,BR,1601638988.0
hovd,48.01,91.64,2.34,73.0,63.0,1.26,MN,1601638805.0
mahebourg,-20.41,57.7,26.0,65.0,75.0,3.1,MU,1601638682.0
chokurdakh,70.63,147.92,-2.36,99.0,100.0,2.16,RU,1601638458.0
zemio,5.03,25.14,24.78,89.0,97.0,2.53,CF,1601638990.0
bengkulu,-3.8,102.27,25.09,83.0,50.0,0.59,ID,1601638505.0
port blair,11.67,92.75,27.24,83.0,100.0,7.11,IN,1601638548.0
pauini,-7.71,-66.98,25.28,88.0,33.0,0.86,BR,1601638992.0
torbay,47.67,-52.73,14.44,93.0,75.0,1.0,CA,1601638458.0
faanui,-16.48,-151.75,25.78,78.0,68.0,8.51,PF,1601638484.0
kislyakovskaya,46.44,39.67,21.97,44.0,100.0,6.17,RU,1601638994.0
padang,-0.95,100.35,25.83,82.0,100.0,2.72,ID,1601638618.0
vila franca do campo,37.72,-25.43,21.0,77.0,40.0,7.7,PT,1601638588.0
minervino murge,41.08,16.08,28.33,39.0,0.0,5.1,IT,1601638995.0
ciudad dario,12.73,-86.12,24.0,100.0,40.0,1.21,NI,1601639001.0
chimore,-16.98,-65.13,28.43,47.0,0.0,0.63,BO,1601639002.0
cabedelo,-6.98,-34.83,28.0,69.0,75.0,5.1,BR,1601639002.0
pangnirtung,66.15,-65.71,-5.0,67.0,20.0,4.6,CA,1601638479.0
hofn,64.25,-15.21,4.0,80.0,90.0,2.6,IS,1601638528.0
kapaa,22.08,-159.32,23.0,88.0,1.0,3.6,US,1601638451.0
lang son,21.83,106.73,25.06,88.0,94.0,1.26,VN,1601638878.0
olyka,50.72,25.81,18.89,67.0,75.0,5.0,UA,1601639005.0
karratha,-20.74,116.85,25.61,37.0,80.0,7.48,AU,1601638692.0
huangzhai,38.08,112.66,11.0,62.0,12.0,1.0,CN,1601639006.0
saldanha,-33.01,17.94,20.0,42.0,49.0,4.6,ZA,1601638759.0
saskylakh,71.92,114.08,-2.52,97.0,95.0,5.37,RU,1601639008.0
gat,31.61,34.76,31.11,50.0,0.0,0.45,IL,1601639009.0
imeni poliny osipenko,52.42,136.49,8.17,79.0,100.0,2.37,RU,1601639009.0
balsas,-7.53,-46.04,31.85,26.0,84.0,5.02,BR,1601639010.0
mareeba,-17.0,145.43,25.0,61.0,75.0,8.2,AU,1601639011.0
carballo,43.21,-8.69,13.0,76.0,40.0,4.6,ES,1601639012.0
chake chake,-5.25,39.77,28.94,61.0,10.0,4.22,TZ,1601639012.0
kaitangata,-46.28,169.85,8.57,79.0,100.0,2.69,NZ,1601639013.0
kaeo,-35.1,173.78,10.0,89.0,100.0,2.07,NZ,1601638591.0
khatanga,71.97,102.5,-3.27,97.0,93.0,7.25,RU,1601638482.0
bauru,-22.31,-49.06,30.56,32.0,91.0,2.24,BR,1601639015.0
leningradskiy,69.38,178.42,1.52,88.0,100.0,7.15,RU,1601638842.0
samarai,-10.62,150.67,25.75,86.0,100.0,8.7,PG,1601639016.0
usta muhammad,28.18,68.04,39.07,8.0,0.0,3.34,PK,1601639018.0
namibe,-15.2,12.15,22.29,65.0,75.0,5.2,AO,1601639018.0
san carlos de bariloche,-41.15,-71.31,-1.11,92.0,90.0,5.7,AR,1601638864.0
cabo san lucas,22.89,-109.91,25.0,78.0,0.0,0.45,MX,1601638818.0
north platte,41.12,-100.77,3.33,70.0,1.0,3.1,US,1601638957.0
poum,-20.23,164.02,21.85,72.0,38.0,9.56,NC,1601638502.0
cockburn town,21.46,-71.14,28.76,78.0,58.0,9.12,TC,1601638494.0
susehri,40.16,38.09,23.28,28.0,14.0,5.53,TR,1601639022.0
serta,39.81,-8.1,17.78,62.0,89.0,4.02,PT,1601639022.0
pedernales,18.04,-71.74,28.08,63.0,71.0,2.62,DO,1601639023.0
fukue,32.69,128.84,22.29,72.0,31.0,0.7,JP,1601639024.0
gorin,51.2,136.67,8.9,79.0,100.0,1.07,RU,1601639025.0
dalbandin,28.89,64.41,33.06,12.0,0.0,4.61,PK,1601639026.0
tres picos,15.87,-93.53,25.18,63.0,97.0,3.48,MX,1601639026.0
teocaltiche,21.43,-102.58,7.0,56.0,5.0,3.6,MX,1601639027.0
baisha,26.52,110.93,24.31,87.0,56.0,0.69,CN,1601639028.0
hamilton,39.18,-84.53,6.11,87.0,1.0,1.5,US,1601638679.0
colwyn bay,53.29,-3.73,11.67,92.0,100.0,4.47,GB,1601639029.0
joshimath,30.57,79.57,18.43,43.0,11.0,1.67,IN,1601639030.0
pemangkat,1.17,108.97,26.39,84.0,100.0,1.93,ID,1601638666.0
sorkjosen,69.8,20.93,14.0,67.0,75.0,11.3,NO,1601639031.0
port elizabeth,-33.92,25.57,17.0,63.0,90.0,8.2,ZA,1601638498.0
dikson,73.51,80.55,1.81,81.0,100.0,10.2,RU,1601639032.0
conde,-7.26,-34.91,28.0,69.0,75.0,5.1,BR,1601639033.0
hualmay,-11.1,-77.61,16.25,84.0,39.0,3.06,PE,1601639034.0
katsuura,35.13,140.3,21.0,77.0,75.0,2.6,JP,1601638552.0
le vauclin,14.55,-60.84,26.11,88.0,93.0,4.6,MQ,1601639040.0
shirokiy,49.76,129.52,8.51,85.0,100.0,7.68,RU,1601639041.0
srednekolymsk,67.45,153.68,1.45,81.0,96.0,1.98,RU,1601638758.0
zabol,32.25,67.25,23.12,18.0,0.0,10.31,AF,1601639042.0
ilulissat,69.22,-51.1,4.0,48.0,75.0,7.2,GL,1601639043.0
palimbang,6.21,124.19,27.7,70.0,93.0,1.7,PH,1601638876.0
miraflores,19.22,-98.81,5.0,65.0,5.0,3.1,MX,1601639044.0
hasaki,35.73,140.83,17.0,93.0,20.0,1.5,JP,1601638457.0
avarua,-21.21,-159.78,23.0,94.0,18.0,2.6,CK,1601639046.0
malanville,11.87,3.39,32.63,50.0,0.0,3.07,BJ,1601639047.0
meadow lake,34.8,-106.54,12.0,49.0,1.0,2.6,US,1601638210.0
atar,20.52,-13.05,37.48,13.0,0.0,8.06,MR,1601639048.0
kidal,18.44,1.41,37.63,24.0,0.0,3.73,ML,1601638827.0
novoasbest,57.74,60.29,13.64,74.0,50.0,2.68,RU,1601639049.0
gonbad-e qabus,37.25,55.17,28.0,26.0,20.0,3.1,IR,1601638966.0
te anau,-45.42,167.72,8.17,86.0,85.0,2.94,NZ,1601638678.0
yarada,17.65,83.27,31.0,62.0,90.0,1.0,IN,1601639051.0
tambun,-6.26,107.07,27.22,83.0,40.0,5.1,ID,1601639053.0
severo-kurilsk,50.68,156.12,8.57,87.0,25.0,6.11,RU,1601638546.0
doha,25.29,51.53,41.0,17.0,0.0,4.6,QA,1601638890.0
padilla,3.22,-76.31,22.22,83.0,75.0,1.5,CO,1601639055.0
fort nelson,58.81,-122.7,4.0,86.0,5.0,2.1,CA,1601638732.0
natal,-5.79,-35.21,26.0,83.0,75.0,3.6,BR,1601638675.0
vila,42.03,-8.16,12.22,71.0,94.0,7.6,PT,1601638580.0
denpasar,-8.65,115.22,28.0,100.0,40.0,5.7,ID,1601638910.0
kurilsk,45.23,147.88,10.23,81.0,59.0,2.26,RU,1601639058.0
codrington,-38.27,141.97,19.67,62.0,29.0,6.0,AU,1601639059.0
alice springs,-23.7,133.88,29.0,7.0,26.0,3.6,AU,1601638937.0
malanje,-9.54,16.34,25.0,83.0,75.0,3.6,AO,1601638630.0
guerrero negro,27.98,-114.06,22.06,68.0,0.0,1.17,MX,1601639061.0
sioux lookout,50.1,-91.92,1.0,86.0,90.0,1.02,CA,1601638648.0
necochea,-38.55,-58.74,8.89,68.0,6.0,6.71,AR,1601639063.0
surt,31.21,16.59,35.72,26.0,43.0,3.42,LY,1601639063.0
ketchikan,55.34,-131.65,14.0,100.0,90.0,3.6,US,1601639064.0
prince rupert,54.32,-130.32,13.0,100.0,90.0,1.0,CA,1601639065.0
quatre cocos,-20.21,57.76,26.0,65.0,75.0,3.1,MU,1601638645.0
xapuri,-10.65,-68.5,24.0,94.0,20.0,1.4,BR,1601639067.0
zhanaozen,43.3,52.8,22.0,22.0,0.0,6.66,KZ,1601638838.0
sakakah,29.97,40.21,39.0,8.0,0.0,5.1,SA,1601639069.0
el alto,-4.27,-81.21,17.0,82.0,4.0,9.3,PE,1601639070.0
jalu,29.03,21.55,37.2,19.0,0.0,2.62,LY,1601638706.0
nikolskoye,59.7,30.79,18.33,45.0,6.0,4.0,RU,1601639071.0
mattru,7.62,-11.83,28.7,78.0,100.0,1.1,SL,1601639072.0
gainesville,29.65,-82.32,16.67,93.0,1.0,4.1,US,1601638875.0
mehamn,71.04,27.85,9.0,81.0,75.0,4.1,NO,1601638784.0
camacha,33.08,-16.33,22.0,68.0,75.0,6.7,PT,1601639079.0
jiwani,25.05,61.74,30.82,64.0,0.0,5.7,PK,1601639079.0
huilong,31.81,121.66,23.89,80.0,52.0,0.89,CN,1601638798.0
ahuimanu,21.44,-157.84,27.0,74.0,40.0,1.5,US,1601638535.0
talnakh,69.49,88.4,1.0,100.0,75.0,2.0,RU,1601638732.0
trim,53.55,-6.79,11.0,71.0,20.0,4.6,IE,1601639082.0
brae,60.4,-1.35,11.0,93.0,75.0,3.1,GB,1601639082.0
qeshm,26.96,56.27,37.0,44.0,20.0,6.2,IR,1601639083.0
zhigansk,66.77,123.37,-1.21,92.0,83.0,8.38,RU,1601639085.0
tecoanapa,16.52,-98.75,24.76,82.0,75.0,2.16,MX,1601639085.0
coquimbo,-29.95,-71.34,9.0,87.0,75.0,2.1,CL,1601638400.0
pirovskoye,57.63,92.27,2.6,81.0,94.0,1.77,RU,1601638813.0
acarau,-2.89,-40.12,29.77,54.0,61.0,7.92,BR,1601638567.0
lokachi,50.74,24.65,18.89,81.0,61.0,4.02,UA,1601639089.0
meulaboh,4.14,96.13,24.71,88.0,100.0,2.86,ID,1601638826.0
eyl,7.98,49.82,28.59,67.0,37.0,8.48,SO,1601638619.0
afikpo,5.89,7.94,29.23,71.0,100.0,1.98,NG,1601639090.0
maneadero,31.72,-116.57,22.34,37.0,0.0,0.49,MX,1601639091.0
esperance,-33.87,121.9,11.0,100.0,75.0,3.6,AU,1601638559.0
beloha,-25.17,45.05,28.77,35.0,35.0,7.18,MG,1601638774.0
whitehorse,60.72,-135.05,7.0,65.0,90.0,5.7,CA,1601639093.0
tessalit,20.2,1.01,38.9,14.0,0.0,3.75,ML,1601638818.0
sept-iles,50.2,-66.38,7.78,100.0,75.0,1.0,CA,1601638923.0
qui nhon,13.77,109.23,28.08,79.0,92.0,2.22,VN,1601639065.0
newport,51.59,-3.0,11.67,98.0,100.0,1.34,GB,1601639095.0
inuvik,68.35,-133.72,0.0,85.0,20.0,2.1,CA,1601639096.0
austin,30.27,-97.74,16.67,63.0,1.0,3.4,US,1601638878.0
kaina,12.64,8.59,29.0,70.0,40.0,4.1,NG,1601639098.0
udon thani,17.42,102.79,30.0,79.0,20.0,1.5,TH,1601639099.0
salina,38.84,-97.61,3.0,86.0,1.0,1.6,US,1601638887.0
craigieburn,-37.6,144.95,22.0,56.0,0.0,14.9,AU,1601639007.0
tilichiki,60.47,166.1,0.3,94.0,13.0,4.5,RU,1601638816.0
ponta do sol,32.67,-17.1,24.44,60.0,40.0,5.7,PT,1601638593.0
pithapuram,17.12,82.27,30.0,66.0,90.0,3.1,IN,1601639102.0
acapulco,16.86,-99.89,24.95,80.0,23.0,1.96,MX,1601639003.0
pangody,65.85,74.49,6.75,92.0,100.0,4.51,RU,1601639104.0
morristown,36.21,-83.29,7.22,93.0,20.0,0.71,US,1601638985.0
sao filipe,14.9,-24.5,27.83,72.0,80.0,3.26,CV,1601638624.0
port lincoln,-34.73,135.87,22.94,38.0,12.0,7.86,AU,1601638534.0
dumas,35.87,-101.97,8.33,49.0,1.0,4.1,US,1601639107.0
yoichi,43.2,140.77,16.0,100.0,75.0,5.7,JP,1601639107.0
san juan de los morros,9.91,-67.35,22.83,91.0,95.0,1.41,VE,1601639109.0
nelson bay,-32.72,152.15,18.0,77.0,0.0,3.6,AU,1601639045.0
longhua,23.61,114.19,25.02,88.0,45.0,0.77,CN,1601639110.0
neepawa,50.23,-99.47,2.0,84.0,75.0,2.6,CA,1601639116.0
kinablangan,7.69,126.55,26.21,81.0,100.0,1.64,PH,1601639117.0
touros,-5.2,-35.46,26.0,83.0,75.0,3.6,BR,1601638622.0
tonj,7.27,28.68,31.8,54.0,1.0,1.36,SS,1601639119.0
gamba,-2.65,10.0,26.61,73.0,96.0,3.4,GA,1601639120.0
bara,10.37,10.73,27.9,65.0,99.0,3.31,NG,1601639121.0
inhambane,-23.86,35.38,24.0,88.0,75.0,3.1,MZ,1601638550.0
colesberg,-30.72,25.1,21.34,29.0,35.0,2.49,ZA,1601639123.0
shellbrook,53.22,-106.4,5.0,93.0,90.0,2.6,CA,1601639021.0
tiksi,71.69,128.87,-3.11,92.0,56.0,9.54,RU,1601638554.0
pathein,16.78,94.73,26.67,88.0,96.0,2.54,MM,1601639124.0
bonavista,48.65,-53.11,12.78,78.0,100.0,0.89,CA,1601639125.0
hirara,24.8,125.28,27.0,78.0,75.0,4.1,JP,1601639126.0
naze,28.37,129.48,26.0,78.0,40.0,2.6,JP,1601638568.0
pakaur,24.63,87.85,29.85,74.0,98.0,1.04,IN,1601639128.0
college,64.86,-147.8,12.0,66.0,75.0,1.5,US,1601639129.0
san vicente,-26.62,-54.13,26.83,41.0,54.0,1.65,AR,1601639129.0
san cristobal,7.77,-72.22,24.0,88.0,40.0,2.1,VE,1601638448.0
walvis bay,-22.96,14.51,21.0,32.0,0.0,2.6,NA,1601639131.0
garissa,-0.45,39.64,34.74,33.0,77.0,7.93,KE,1601639132.0
aksarka,66.56,67.8,9.12,75.0,96.0,6.76,RU,1601639133.0
aswan,24.09,32.91,41.78,13.0,0.0,1.48,EG,1601638541.0
northam,51.03,-4.22,13.33,88.0,100.0,7.15,GB,1601639134.0
batagay,67.63,134.63,-2.94,82.0,89.0,3.0,RU,1601639136.0
kondinskoye,59.65,67.41,13.26,71.0,49.0,3.62,RU,1601639137.0
san agustin acasaguastlan,14.95,-89.97,14.44,91.0,98.0,2.24,GT,1601639138.0
verkhoyansk,67.54,133.38,-2.53,82.0,97.0,4.55,RU,1601639139.0
lucapa,-8.42,20.74,34.29,39.0,53.0,0.67,AO,1601639141.0
ouro preto do oeste,-10.75,-62.22,25.73,78.0,32.0,2.09,BR,1601639142.0
zeya,53.75,127.27,7.55,80.0,100.0,2.46,RU,1601638584.0
boguchany,58.38,97.45,-0.23,95.0,84.0,1.68,RU,1601639143.0
veere,51.55,3.67,14.0,76.0,100.0,8.7,NL,1601639144.0
malindi,-3.22,40.12,27.91,65.0,2.0,6.46,KE,1601639145.0
altar,30.7,-111.82,23.29,22.0,0.0,0.15,MX,1601639147.0
mackenzie,55.3,-123.17,3.0,93.0,75.0,1.0,CA,1601639111.0
gazojak,41.19,61.4,22.83,19.0,0.0,2.99,TM,1601639149.0
nome,64.5,-165.41,9.44,81.0,90.0,5.1,US,1601638694.0
manokwari,-0.87,134.08,26.93,77.0,89.0,0.59,ID,1601639150.0
khandbari,27.37,87.2,23.33,77.0,20.0,0.54,NP,1601639151.0
qandala,11.47,49.87,30.66,49.0,2.0,2.77,SO,1601639152.0
castro,-24.79,-50.01,29.5,38.0,60.0,4.72,BR,1601639152.0
nantucket,41.28,-70.1,17.22,93.0,1.0,2.1,US,1601639153.0
porto novo,6.5,2.6,28.0,78.0,40.0,5.1,BJ,1601639154.0
tommot,58.96,126.29,3.03,78.0,100.0,2.71,RU,1601639155.0
kahului,20.89,-156.47,28.0,74.0,75.0,6.2,US,1601638624.0
ballina,-28.87,153.57,19.0,88.0,0.0,2.6,AU,1601639161.0
mount gambier,-37.83,140.77,22.0,46.0,5.0,5.1,AU,1601639162.0
ponta delgada,37.73,-25.67,21.0,77.0,40.0,7.7,PT,1601639163.0
thompson,55.74,-97.86,0.0,94.0,90.0,0.81,CA,1601639111.0
mufumbwe,-13.68,24.8,37.9,12.0,0.0,2.41,ZM,1601639164.0
udankudi,8.43,78.02,35.0,47.0,20.0,5.1,IN,1601639165.0
maceio,-9.67,-35.74,27.0,65.0,20.0,4.6,BR,1601639166.0
skovorodino,53.98,123.92,6.44,83.0,100.0,2.16,RU,1601639167.0
vanavara,60.34,102.28,-0.74,94.0,94.0,2.6,RU,1601639168.0
colgong,25.27,87.22,28.7,79.0,100.0,0.18,IN,1601639169.0
kavieng,-2.57,150.8,27.54,81.0,100.0,4.23,PG,1601639170.0
herat,34.5,62.0,26.0,14.0,0.0,3.1,AF,1601639171.0
singaraja,-8.11,115.09,27.49,77.0,89.0,1.87,ID,1601639172.0
arlit,18.74,7.39,38.25,20.0,2.0,4.11,NE,1601639173.0
san patricio,19.22,-104.7,24.31,77.0,0.0,1.93,MX,1601639174.0
kannur,11.87,75.36,30.0,70.0,20.0,4.6,IN,1601639175.0
takapau,-40.03,176.35,11.11,70.0,79.0,2.24,NZ,1601638881.0
hefei,31.86,117.28,21.0,88.0,97.0,5.0,CN,1601639176.0
mahon,39.89,4.27,24.0,73.0,20.0,10.3,ES,1601639177.0
timra,62.49,17.33,15.56,93.0,89.0,2.1,SE,1601639177.0
pombia,45.65,8.63,15.0,100.0,75.0,9.3,IT,1601639178.0
bonthe,7.53,-12.51,28.66,73.0,94.0,3.89,SL,1601639179.0
kathmandu,27.72,85.32,24.0,83.0,75.0,4.1,NP,1601639007.0
maragogi,-9.01,-35.22,26.74,66.0,88.0,5.66,BR,1601639136.0
biak,-0.91,122.88,25.44,81.0,55.0,2.33,ID,1601638590.0
honiara,-9.43,159.95,24.0,94.0,40.0,1.0,SB,1601639181.0
talcahuano,-36.72,-73.12,4.0,93.0,0.0,1.0,CL,1601639182.0
kolarovo,47.92,17.98,20.0,72.0,60.0,5.7,SK,1601639182.0
victoria,22.29,114.16,28.33,73.0,4.0,7.4,HK,1601639183.0
genhe,50.78,121.52,4.9,88.0,100.0,1.46,CN,1601638857.0
lavrentiya,65.58,-171.0,4.91,94.0,100.0,4.41,RU,1601638704.0
batemans bay,-35.72,150.18,13.33,79.0,0.0,0.45,AU,1601638602.0
brenham,30.17,-96.4,14.44,87.0,1.0,3.45,US,1601639187.0
verkhnevilyuysk,63.45,120.32,-2.33,91.0,36.0,2.39,RU,1601639187.0
aktau,43.65,51.2,24.0,17.0,4.0,7.0,KZ,1601639188.0
kununurra,-15.77,128.73,29.0,66.0,97.0,3.35,AU,1601638542.0
watertown,42.37,-71.18,15.56,87.0,75.0,1.41,US,1601639012.0
shenjiamen,29.96,122.3,22.52,76.0,5.0,3.47,CN,1601638703.0
lishui,28.46,119.91,22.25,72.0,12.0,1.2,CN,1601639191.0
mirzapur,25.15,82.58,33.0,49.0,20.0,2.1,IN,1601639191.0
trat,12.5,102.5,25.93,92.0,100.0,1.65,TH,1601639192.0
axim,4.87,-2.24,27.59,71.0,39.0,4.02,GH,1601639193.0
tarko-sale,64.92,77.78,7.22,89.0,100.0,3.49,RU,1601639194.0
oranjemund,-28.55,16.43,16.5,64.0,2.0,5.87,NA,1601638631.0
eureka,40.8,-124.16,12.0,100.0,90.0,1.5,US,1601639195.0
cleveland,41.5,-81.7,12.0,71.0,90.0,9.8,US,1601639019.0
kropotkin,45.44,40.58,16.54,78.0,100.0,2.91,RU,1601639197.0
bay roberts,47.6,-53.26,14.44,1.0,100.0,0.94,CA,1601639197.0
uige,-7.61,15.06,31.93,47.0,62.0,0.75,AO,1601639203.0
lakes entrance,-37.88,147.98,17.78,62.0,0.0,3.81,AU,1601639204.0
maniitsoq,65.42,-52.9,3.37,77.0,93.0,4.89,GL,1601639204.0
garden city,42.33,-83.33,4.0,86.0,40.0,3.1,US,1601639129.0
tiarei,-17.53,-149.33,25.0,65.0,20.0,2.1,PF,1601639206.0
cabo rojo,18.09,-67.15,28.33,86.0,40.0,0.45,PR,1601639207.0
san matias,-16.37,-58.4,33.18,33.0,76.0,2.0,BO,1601639208.0
bowen,-20.02,148.23,21.0,83.0,40.0,3.1,AU,1601639208.0
lorengau,-2.02,147.27,26.14,83.0,100.0,4.51,PG,1601639209.0
coruripe,-10.13,-36.18,26.99,61.0,93.0,5.09,BR,1601639210.0
ostersund,63.18,14.64,9.0,87.0,75.0,3.1,SE,1601639211.0
grindavik,63.84,-22.43,6.0,87.0,75.0,6.7,IS,1601639211.0
aku,6.71,7.32,26.23,83.0,96.0,1.72,NG,1601639212.0
secovce,48.7,21.66,15.0,82.0,90.0,3.1,SK,1601639213.0
saint-augustin,51.23,-58.65,12.06,76.0,0.0,1.87,CA,1601639215.0
anadyr,64.75,177.48,2.0,100.0,40.0,6.0,RU,1601639168.0
port said,31.26,32.28,28.0,58.0,20.0,3.6,EG,1601638996.0
barra patuca,15.8,-84.28,23.82,92.0,100.0,0.58,HN,1601639217.0
kamenka,51.32,42.77,21.67,35.0,100.0,0.89,RU,1601638638.0
roald,62.58,6.13,18.0,45.0,61.0,7.2,NO,1601639218.0
belyy yar,53.6,91.39,6.0,52.0,60.0,2.0,RU,1601638793.0
mitzic,0.78,11.55,30.49,51.0,78.0,1.42,GA,1601639220.0
kalmunai,7.42,81.82,29.82,69.0,97.0,1.73,LK,1601639221.0
conceicao do araguaia,-8.26,-49.26,33.36,39.0,73.0,1.5,BR,1601639104.0
chacaltianguis,18.33,-95.83,18.17,82.0,12.0,2.87,MX,1601639222.0
batangafo,7.3,18.28,32.71,59.0,75.0,0.66,CF,1601639223.0
altamira,-3.2,-52.21,30.03,56.0,27.0,1.95,BR,1601639224.0
davila,18.47,120.58,29.0,83.0,75.0,2.1,PH,1601639225.0
taywarah,33.35,64.42,15.46,30.0,0.0,4.31,AF,1601639225.0
cairns,-16.92,145.77,25.0,61.0,75.0,8.2,AU,1601638998.0
cavalcante,-13.8,-47.46,29.6,28.0,55.0,4.38,BR,1601639227.0
dolinsk,47.35,142.8,6.0,93.0,40.0,1.0,RU,1601639227.0
alofi,-19.06,-169.92,24.0,100.0,57.0,2.1,NU,1601639228.0
baherden,38.44,57.43,24.59,17.0,0.0,3.56,TM,1601639229.0
mwene-ditu,-7.0,23.45,33.56,44.0,70.0,0.49,CD,1601638774.0
cabatuan,10.88,122.49,26.02,87.0,86.0,0.78,PH,1601639230.0
arawa,-6.21,155.54,24.79,78.0,7.0,1.2,PG,1601639231.0
olden,61.84,6.81,16.0,48.0,100.0,4.1,NO,1601639232.0
paraiso,9.84,-83.87,18.0,100.0,100.0,1.0,CR,1601638670.0
nuevo progreso,23.17,-97.95,17.78,91.0,0.0,0.89,MX,1601639233.0
iskilip,40.74,34.47,22.67,22.0,5.0,4.79,TR,1601639234.0
ancud,-41.87,-73.82,5.56,83.0,18.0,3.1,CL,1601639235.0
hun,29.13,15.95,40.34,9.0,0.0,4.34,LY,1601639236.0
honningsvag,70.98,25.97,9.0,81.0,40.0,3.6,NO,1601638730.0
villamontes,-21.25,-63.5,27.0,61.0,47.0,3.6,BO,1601639237.0
kelvington,52.17,-103.53,3.62,88.0,100.0,2.37,CA,1601639172.0
riohacha,11.54,-72.91,26.28,85.0,58.0,2.64,CO,1601639205.0
jieshi,22.81,115.83,25.71,79.0,2.0,5.57,CN,1601639244.0
general roca,-39.03,-67.58,3.0,88.0,75.0,6.7,AR,1601639246.0
kikwit,-5.04,18.82,36.68,35.0,63.0,0.89,CD,1601639246.0
morwell,-38.23,146.4,15.0,80.0,0.0,0.14,AU,1601639247.0
grand gaube,-20.01,57.66,25.56,66.0,2.0,1.34,MU,1601638671.0
damavand,35.72,52.06,28.0,25.0,20.0,6.2,IR,1601639249.0
nabire,-3.37,135.48,26.27,80.0,60.0,1.0,ID,1601639250.0
los andes,-32.83,-70.6,10.0,99.0,1.0,0.68,CL,1601639251.0
mkushi,-13.62,29.39,35.6,11.0,2.0,4.83,ZM,1601639252.0
shimoda,34.67,138.95,16.67,85.0,43.0,2.08,JP,1601639253.0
broome,42.25,-75.83,9.44,93.0,90.0,1.5,US,1601639254.0
ust-tsilma,65.44,52.15,9.67,83.0,97.0,4.44,RU,1601639254.0
narsaq,60.92,-46.05,2.0,93.0,75.0,1.5,GL,1601639050.0
tazovskiy,67.47,78.7,5.7,94.0,100.0,4.66,RU,1601639256.0
chkalovskoye,44.84,133.04,10.81,96.0,100.0,0.94,RU,1601639257.0
port hardy,50.7,-127.42,11.0,100.0,90.0,0.6,CA,1601639258.0
pedasi,7.53,-80.03,25.62,82.0,92.0,1.76,PA,1601639259.0
chernyshevskiy,63.01,112.47,-0.26,89.0,96.0,4.0,RU,1601639260.0
richards bay,-28.78,32.04,18.64,67.0,84.0,4.21,ZA,1601638746.0
bethel,41.37,-73.41,13.0,93.0,90.0,1.5,US,1601639261.0
paamiut,61.99,-49.67,4.26,91.0,100.0,10.22,GL,1601638756.0
tarakan,3.3,117.63,28.89,76.0,1.0,4.41,ID,1601639262.0
micheweni,-4.97,39.83,27.97,67.0,22.0,3.32,TZ,1601639263.0
pasinler,39.98,41.68,21.0,26.0,75.0,6.2,TR,1601639264.0
sorong,-0.88,131.25,27.35,80.0,96.0,1.51,ID,1601639264.0
asfi,32.3,-9.24,21.76,72.0,81.0,7.26,MA,1601639265.0
harrison,30.41,-89.04,15.0,67.0,1.0,3.83,US,1601639266.0
carbonia,39.17,8.52,24.0,83.0,75.0,6.7,IT,1601639267.0
vakhtan,57.97,46.69,17.38,60.0,76.0,1.66,RU,1601639268.0
syracuse,37.09,15.28,28.33,74.0,20.0,3.6,IT,1601639268.0
morehead,37.27,-87.18,6.0,87.0,1.0,1.97,US,1601639269.0
dingle,11.0,122.67,26.2,86.0,77.0,0.61,PH,1601639270.0
airai,-8.93,125.41,15.65,93.0,77.0,1.59,TL,1601639271.0
mezen,65.85,44.24,9.78,77.0,87.0,4.88,RU,1601638734.0
nanortalik,60.14,-45.24,2.9,93.0,100.0,3.47,GL,1601639273.0
bilma,18.69,12.92,40.33,8.0,0.0,4.84,NE,1601639273.0
casablanca,33.59,-7.62,22.0,68.0,90.0,5.7,MA,1601639147.0
chokwe,-24.53,32.98,22.03,76.0,100.0,5.99,MZ,1601638834.0
scarborough,54.28,-0.4,13.89,84.0,92.0,2.68,GB,1601638576.0
kruisfontein,-34.0,24.73,16.67,69.0,100.0,5.36,ZA,1601639276.0
kulachi,31.93,70.46,36.69,8.0,0.0,2.8,PK,1601639276.0
lompoc,34.64,-120.46,18.0,62.0,1.0,2.1,US,1601638734.0
malia,35.28,25.47,27.78,57.0,20.0,4.6,GR,1601639278.0
linguere,15.4,-15.12,39.49,16.0,25.0,5.69,SN,1601639279.0
voh,-20.97,164.7,18.76,78.0,1.0,3.52,NC,1601639285.0
derzhavinsk,51.1,66.32,15.65,49.0,41.0,3.21,KZ,1601639285.0
laguna,38.42,-121.42,18.89,77.0,1.0,1.25,US,1601638871.0
pakenham,-38.07,145.48,22.22,57.0,0.0,4.02,AU,1601639287.0
garmsar,35.22,52.34,29.79,14.0,0.0,3.08,IR,1601639288.0
jaisalmer,26.91,70.92,37.25,18.0,0.0,5.15,IN,1601639288.0
karoi,-16.81,29.69,33.87,17.0,0.0,4.93,ZW,1601639289.0
aleksandrov gay,50.15,48.57,20.7,29.0,0.0,5.68,RU,1601639290.0
portsoy,57.68,-2.69,13.89,73.0,40.0,2.68,GB,1601639290.0
tomatlan,19.93,-105.25,20.93,73.0,11.0,1.99,MX,1601639291.0
lokosovo,61.13,74.82,10.56,80.0,68.0,4.12,RU,1601639292.0
kushmurun,52.45,64.63,15.3,44.0,5.0,2.04,KZ,1601638733.0
andra,62.51,65.89,11.73,67.0,51.0,3.94,RU,1601639293.0
suileng,47.25,127.08,9.23,84.0,77.0,2.91,CN,1601639294.0
naryan-mar,67.67,53.09,6.49,68.0,85.0,7.35,RU,1601639294.0
kokstad,-30.55,29.42,12.22,74.0,91.0,3.58,ZA,1601639295.0
lac du bonnet,50.25,-96.06,-3.33,99.0,78.0,1.73,CA,1601639296.0
nokha,27.6,73.42,36.28,10.0,0.0,4.55,IN,1601639297.0
omaruru,-21.43,15.93,29.7,10.0,0.0,6.19,NA,1601639297.0
mecca,21.43,39.83,37.78,32.0,0.0,7.6,SA,1601639260.0
portland,45.52,-122.68,15.0,93.0,90.0,1.5,US,1601639095.0
dhankuta,26.98,87.33,21.7,88.0,44.0,1.04,NP,1601639299.0
qiongshan,20.01,110.35,27.0,100.0,20.0,4.0,CN,1601639300.0
olga,43.74,135.29,13.27,91.0,100.0,1.88,RU,1601639301.0
luangwa,-15.62,30.42,39.91,13.0,0.0,5.37,ZM,1601639301.0
lodja,-3.48,23.43,32.93,43.0,64.0,0.69,CD,1601639302.0
koslan,63.46,48.9,12.19,66.0,32.0,3.69,RU,1601639303.0
tromso,69.65,18.96,9.0,93.0,40.0,13.9,NO,1601639106.0
lagoa,39.05,-27.98,20.63,85.0,100.0,7.79,PT,1601639304.0
esil,51.96,66.4,15.64,51.0,64.0,1.92,KZ,1601639305.0
lichtenau,51.62,8.9,18.33,55.0,69.0,6.2,DE,1601639306.0
bubaque,11.28,-15.83,27.62,76.0,53.0,4.76,GW,1601639306.0
knysna,-34.04,23.05,14.0,76.0,75.0,7.7,ZA,1601639307.0
dunedin,-45.87,170.5,11.32,64.0,100.0,4.04,NZ,1601639308.0
sungaipenuh,-2.08,101.38,19.07,95.0,91.0,0.73,ID,1601639308.0
polewali,-3.43,119.34,26.79,75.0,34.0,2.56,ID,1601639309.0
dubbo,-32.25,148.62,10.0,81.0,0.0,2.6,AU,1601639310.0
bhadrak,21.06,86.51,27.89,86.0,100.0,3.4,IN,1601639311.0
fomboni,-12.28,43.74,25.95,79.0,11.0,2.68,KM,1601639311.0
regente feijo,-22.22,-51.3,30.8,27.0,60.0,2.34,BR,1601639043.0
turtas,58.94,69.13,12.58,75.0,46.0,2.69,RU,1601639313.0
dwarka,22.24,68.97,29.12,71.0,33.0,5.53,IN,1601639314.0
salinas,36.68,-121.66,17.0,67.0,90.0,0.69,US,1601639076.0
ouesso,1.61,16.05,32.07,51.0,81.0,1.01,CG,1601639315.0
flinders,-34.58,150.86,17.78,76.0,0.0,0.45,AU,1601639316.0
caravelas,-17.71,-39.25,27.13,60.0,16.0,3.95,BR,1601639317.0
demba,-5.51,22.27,33.63,39.0,98.0,1.3,CD,1601639318.0
tamale,9.4,-0.84,27.98,74.0,65.0,3.18,GH,1601639323.0
vao,-22.67,167.48,20.71,78.0,0.0,8.5,NC,1601639324.0
loznica,44.53,19.22,25.0,50.0,40.0,2.1,RS,1601639324.0
new castle,41.0,-80.35,8.0,93.0,90.0,2.1,US,1601639325.0
luderitz,-26.65,15.16,16.97,57.0,0.0,6.21,NA,1601638749.0
aksaray,38.37,34.03,23.0,35.0,40.0,2.6,TR,1601639326.0
gweru,-19.45,29.82,33.53,15.0,11.0,2.91,ZW,1601639327.0
qiyang,26.59,111.85,25.68,84.0,7.0,2.01,CN,1601639328.0
tayu,-6.54,111.05,28.3,78.0,6.0,2.55,ID,1601639329.0
matamoros,25.53,-103.25,15.56,45.0,0.0,2.7,MX,1601639330.0
zaqatala,41.63,46.64,21.0,60.0,75.0,1.81,AZ,1601639331.0
boralday,43.36,76.86,15.0,30.0,90.0,1.0,KZ,1601639331.0
caronport,50.45,-105.82,5.0,60.0,75.0,1.0,CA,1601639332.0
constantine,36.37,6.61,28.0,18.0,5.0,9.3,DZ,1601639333.0
pala,9.36,14.9,32.5,57.0,98.0,0.75,TD,1601639335.0
andenes,69.31,16.12,13.0,76.0,92.0,4.6,NO,1601639336.0
sinnar,13.57,33.57,35.77,31.0,77.0,3.53,SD,1601639337.0
aklavik,68.22,-135.01,0.0,90.0,20.0,2.1,CA,1601638764.0
svetlyy,54.67,20.13,17.22,72.0,40.0,6.0,RU,1601639338.0
kurumkan,54.3,110.3,1.43,82.0,100.0,1.53,RU,1601639339.0
huarmey,-10.07,-78.15,16.71,84.0,51.0,2.7,PE,1601639340.0
aktas,49.78,72.96,11.0,62.0,75.0,5.0,KZ,1601639340.0
zverinogolovskoye,54.46,64.85,15.26,44.0,22.0,2.86,RU,1601639341.0
balingasay,16.36,119.86,29.11,74.0,93.0,2.04,PH,1601639342.0
pisco,-13.7,-76.22,16.11,87.0,0.0,2.6,PE,1601639343.0
ankazoabo,-22.28,44.52,36.98,11.0,0.0,4.05,MG,1601639343.0
mackay,-21.15,149.2,22.0,78.0,40.0,4.6,AU,1601639344.0
kamaishi,39.27,141.88,16.99,81.0,32.0,2.47,JP,1601639345.0
north las vegas,36.2,-115.12,21.67,13.0,1.0,3.1,US,1601639100.0
geraldton,-28.77,114.6,17.0,59.0,90.0,7.2,AU,1601638795.0
napanee,44.25,-76.95,10.0,93.0,75.0,3.1,CA,1601639347.0
togur,58.36,82.83,8.36,96.0,100.0,3.42,RU,1601639348.0
korla,41.76,86.15,16.0,27.0,42.0,1.2,CN,1601638869.0
gayeri,12.65,0.49,32.42,48.0,0.0,5.57,BF,1601639349.0
raga,8.46,25.68,29.46,71.0,13.0,0.45,SS,1601639350.0
makubetsu,45.37,141.82,13.69,86.0,100.0,9.12,JP,1601639351.0
nhulunbuy,-12.23,136.77,25.0,69.0,40.0,3.6,AU,1601639352.0
isangel,-19.55,169.27,20.13,87.0,100.0,2.99,VU,1601638782.0
dinard,48.63,-2.06,13.0,71.0,90.0,11.8,FR,1601639353.0
rio gallegos,-51.62,-69.22,-2.0,79.0,0.0,5.7,AR,1601639274.0
tabuk,17.42,121.44,24.23,87.0,63.0,2.71,PH,1601638766.0
bambanglipuro,-7.95,110.28,25.96,86.0,31.0,2.69,ID,1601639356.0
jumla,29.27,82.18,16.53,66.0,18.0,1.57,NP,1601639356.0
pahrump,36.21,-115.98,15.56,19.0,0.0,0.68,US,1601639362.0
kawalu,-7.38,108.21,23.81,91.0,82.0,1.35,ID,1601639363.0
west wendover,40.74,-114.07,12.0,25.0,1.0,1.32,US,1601639363.0
oranjestad,12.52,-70.03,28.0,83.0,20.0,4.6,AW,1601639364.0
taltal,-25.4,-70.48,15.15,67.0,35.0,1.05,CL,1601639365.0
haines junction,60.75,-137.51,3.68,82.0,100.0,0.76,CA,1601639366.0
khasan,42.43,130.64,13.63,87.0,42.0,2.43,RU,1601639367.0
north bend,43.41,-124.22,13.89,100.0,90.0,3.1,US,1601639236.0
linqiong,30.42,103.46,23.33,83.0,40.0,1.0,CN,1601639368.0
yarensk,62.17,49.09,12.42,79.0,93.0,2.84,RU,1601639369.0
mocuba,-16.84,36.99,39.3,18.0,0.0,3.37,MZ,1601639370.0
gondar,12.6,37.47,22.17,53.0,25.0,2.47,ET,1601639371.0
